<markers>
<marker id="1" stop="Ballygawley Park and Ride" lat="54.462826" lng="-7.028651"/>
<marker id="2" stop="Omagh" lat="54.610703" lng="-7.323314"/>
<marker id="3" stop="Tourist Information O'Connell Street" lat="53.351028" lng="-6.260513"/>
<marker id="4" stop="Dublin Writer's Museum" lat="53.354298" lng="-6.263970"/>
<marker id="5" stop="Cassidys Hotel" lat="53.353371" lng="-6.262040"/>
<marker id="6" stop="Rotunda, Hugh Lane Galllery" lat="53.354263" lng="-6.264077"/>
<marker id="7" stop="Dublin Airport " lat="53.428970" lng="-6.241244"/>
<marker id="8" stop="Dublin Airport " lat="53.428776" lng="-6.240861"/>
<marker id="9" stop="Cockhill Road" lat="55.136784" lng="-7.456045"/>
<marker id="10" stop="Main Street Moville" lat="55.189049" lng="-7.039814"/>
<marker id="11" stop="The Diamond Carndonagh" lat="55.251282" lng="-7.261468"/>
<marker id="12" stop="Lifford, AIB Lifford" lat="54.831825" lng="-7.482939"/>
<marker id="13" stop="Derry Road Monaghan" lat="54.258549" lng="-6.959342"/>
<marker id="14" stop="Killybrone, Aughnacloy" lat="54.415440" lng="-6.977188"/>
</markers>